[{
        "id": 48001,
        "name": "MetalSpear",
        "location": "MetalSpear",
        "region": "ResearchTable"
    }, {
        "id": 48002,
        "name": "PaintBrush",
        "location": "PaintBrush",
        "region": "ResearchTable"
    }, {
        "id": 48003,
        "name": "ScrapHook",
        "location": "ScrapHook",
        "region": "ResearchTable"
    }, {
        "id": 48004,
        "name": "MetalAxe",
        "location": "MetalAxe",
        "region": "ResearchTable"
    }, {
        "id": 48005,
        "name": "MetalFishingRod",
        "location": "MetalFishingRod",
        "region": "ResearchTable"
    }, {
        "id": 48006,
        "name": "BasicBow",
        "location": "BasicBow",
        "region": "ResearchTable"
    }, {
        "id": 48007,
        "name": "Binoculars",
        "location": "Binoculars",
        "region": "ResearchTable"
    }, {
        "id": 48008,
        "name": "StoneArrow",
        "location": "StoneArrow",
        "region": "ResearchTable"
    }, {
        "id": 48009,
        "name": "Table",
        "location": "Table",
        "region": "ResearchTable"
    }, {
        "id": 48010,
        "name": "Rug",
        "location": "Rug",
        "region": "ResearchTable"
    }, {
        "id": 48011,
        "name": "PaintMill",
        "location": "PaintMill",
        "region": "ResearchTable"
    }, {
        "id": 48012,
        "name": "Lantern",
        "location": "Lantern",
        "region": "ResearchTable"
    }, {
        "id": 48013,
        "name": "Clock",
        "location": "Clock",
        "region": "ResearchTable"
    }, {
        "id": 48014,
        "name": "Chair",
        "location": "Chair",
        "region": "ResearchTable"
    }, {
        "id": 48015,
        "name": "Storage",
        "location": "Storage",
        "region": "ResearchTable"
    }, {
        "id": 48016,
        "name": "CollectionNet",
        "location": "CollectionNet",
        "region": "ResearchTable"
    }, {
        "id": 48017,
        "name": "Smelter",
        "location": "Smelter",
        "region": "ResearchTable"
    }, {
        "id": 48018,
        "name": "BirdsNest",
        "location": "BirdsNest",
        "region": "ResearchTable"
    }, {
        "id": 48019,
        "name": "Hammock",
        "location": "Hammock",
        "region": "ResearchTable"
    }, {
        "id": 48020,
        "name": "StationaryAnchor",
        "location": "StationaryAnchor",
        "region": "ResearchTable"
    }, {
        "id": 48021,
        "name": "Scarecrow",
        "location": "Scarecrow",
        "region": "ResearchTable"
    }, {
        "id": 48022,
        "name": "LargeCropPlot",
        "location": "LargeCropPlot",
        "region": "ResearchTable"
    }, {
        "id": 48023,
        "name": "MediumCropPlot",
        "location": "MediumCropPlot",
        "region": "ResearchTable"
    }, {
        "id": 48024,
        "name": "AdvancedPurifier",
        "location": "AdvancedPurifier",
        "region": "ResearchTable"
    }, {
        "id": 48025,
        "name": "AdvancedGrill",
        "location": "AdvancedGrill",
        "region": "ResearchTable"
    }, {
        "id": 48026,
        "name": "EmptyBottle",
        "location": "EmptyBottle",
        "region": "ResearchTable"
    }, {
        "id": 48027,
        "name": "Flippers",
        "location": "Flippers",
        "region": "ResearchTable"
    }, {
        "id": 48028,
        "name": "OxygenBottle",
        "location": "OxygenBottle",
        "region": "ResearchTable"
    }, {
        "id": 48029,
        "name": "Hinge",
        "location": "Hinge",
        "region": "ResearchTable"
    }, {
        "id": 48030,
        "name": "CircuitBoard",
        "location": "CircuitBoard",
        "region": "ResearchTable"
    }, {
        "id": 48031,
        "name": "Bolt",
        "location": "Bolt",
        "region": "ResearchTable"
    }, {
        "id": 48032,
        "name": "Battery",
        "location": "Battery",
        "region": "ResearchTable"
    }, {
        "id": 48033,
        "name": "CookingPot",
        "location": "CookingPot",
        "region": "ResearchTable"
    }, {
        "id": 48034,
        "name": "ClayBowl",
        "location": "ClayBowl",
        "region": "ResearchTable"
    }, {
        "id": 48035,
        "name": "NetLauncher",
        "location": "NetLauncher",
        "region": "ResearchTable"
    }, {
        "id": 48036,
        "name": "Shovel",
        "location": "Shovel",
        "region": "ResearchTable"
    }, {
        "id": 48037,
        "name": "Shear",
        "location": "Shear",
        "region": "ResearchTable"
    }, {
        "id": 48038,
        "name": "Bucket",
        "location": "Bucket",
        "region": "ResearchTable"
    }, {
        "id": 48039,
        "name": "NetCanister",
        "location": "NetCanister",
        "region": "ResearchTable"
    }, {
        "id": 48040,
        "name": "HealingSalve",
        "location": "HealingSalve",
        "region": "ResearchTable"
    }, {
        "id": 48041,
        "name": "GoodHealingSalve",
        "location": "GoodHealingSalve",
        "region": "ResearchTable"
    }, {
        "id": 48042,
        "name": "GrassPlot",
        "location": "GrassPlot",
        "region": "ResearchTable"
    }, {
        "id": 48043,
        "name": "Sprinkler",
        "location": "Sprinkler",
        "region": "ResearchTable"
    }, {
        "id": 48044,
        "name": "Backpack",
        "location": "Backpack",
        "region": "ResearchTable"
    }, {
        "id": 48045,
        "name": "LeatherHelmet",
        "location": "LeatherHelmet",
        "region": "ResearchTable"
    }, {
        "id": 48046,
        "name": "LeatherBodyArmor",
        "location": "LeatherBodyArmor",
        "region": "ResearchTable"
    }, {
        "id": 48047,
        "name": "LeatherGreaves",
        "location": "LeatherGreaves",
        "region": "ResearchTable"
    }, {
        "id": 48048,
        "name": "Beehive",
        "location": "Beehive",
        "region": "ResearchTable"
    }, {
        "id": 48049,
        "name": "RadioTowerDiary1",
        "location": "RadioTowerDiary1",
        "region": "RadioTower"
    }, {
        "id": 48050,
        "name": "RadioTowerDiary2",
        "location": "RadioTowerDiary2",
        "region": "RadioTower"
    }, {
        "id": 48051,
        "name": "RadioTowerDiary3",
        "location": "RadioTowerDiary3",
        "region": "RadioTower"
    }, {
        "id": 48052,
        "name": "RadioTowerRadioTranscription",
        "location": "RadioTowerRadioTranscription",
        "region": "RadioTower"
    }
]
